[
  {
    "id": "1",
    "name": "감미옥 본점",
    "address": "경기도 성남시 분당구 탄천로 181 (야탑동;1;2층)",
    "coords": {
      "lat": 37.408818,
      "lng": 127.122825
    }
  },
  {
    "id": "2",
    "name": "강남면옥 분당점",
    "address": "경기도 성남시 분당구 새마을로 5 (서현동; 1층 전부)",
    "coords": {
      "lat": 37.384281,
      "lng": 127.131157
    }
  },
  {
    "id": "3",
    "name": "경복궁 판교점",
    "address": "경기도 성남시 분당구 대왕판교로606번길 58 (삼평동; 판교푸르지오월드마크 2층 2-11~16호; 2-41호)",
    "coords": {
      "lat": 37.395421,
      "lng": 127.113555
    }
  },
  {
    "id": "4",
    "name": "고미고미",
    "address": "경기도 성남시 분당구 중앙공원로31번길 42 서현파크플라자 1층 107호; 108호; 109호 (서현동)",
    "coords": {
      "lat": 37.383133,
      "lng": 127.125492
    }
  },
  {
    "id": "5",
    "name": "광화문국밥 판교점",
    "address": "경기도 성남시 분당구 판교역로 152 2(일부)층 (백현동)",
    "coords": {
      "lat": 37.394245,
      "lng": 127.110307
    }
  },
  {
    "id": "6",
    "name": "교대이층집 서현점",
    "address": "경기도 성남시 분당구 분당로53번길 9 에이원프라자 2(일부)층 (서현동)",
    "coords": {
      "lat": 37.383921,
      "lng": 127.121343
    }
  },
  {
    "id": "7",
    "name": "그집",
    "address": "경기도 성남시 분당구 황새울로 337 경기도 성남시 분당구 황새울로258번길 42 (수내동)",
    "coords": {
      "lat": 37.386285,
      "lng": 127.12243
    }
  },
  {
    "id": "8",
    "name": "긴자 백현점",
    "address": "경기도 성남시 분당구 판교백현로 37 1층; 2층 일부호 (백현동)",
    "coords": {
      "lat": 37.38184,
      "lng": 127.094971
    }
  },
  {
    "id": "9",
    "name": "긴자 판교점",
    "address": "경기도 성남시 분당구 판교로 185 (판교동; 3층)",
    "coords": {
      "lat": 37.400635,
      "lng": 127.095072
    }
  },
  {
    "id": "10",
    "name": "김초생초",
    "address": "경기도 성남시 분당구 대왕판교로 255 1(일부)층 104호 (궁내동)",
    "coords": {
      "lat": 37.366474,
      "lng": 127.101094
    }
  },
  {
    "id": "11",
    "name": "나라돈까스",
    "address": "경기도 성남시 분당구 서현로 192 (서현동; 야베스벨리 1동 1층 111호 일부 )",
    "coords": {
      "lat": 37.387793,
      "lng": 127.124427
    }
  },
  {
    "id": "12",
    "name": "나지미돈부리",
    "address": "경기도 성남시 분당구 황새울로200번길 32 (수내동;삼라마이다스빌 101호)",
    "coords": {
      "lat": 37.376979,
      "lng": 127.113619
    }
  },
  {
    "id": "13",
    "name": "내뜨락",
    "address": "경기도 성남시 분당구 서현로237번길 24-1 (서현동; 1층)",
    "coords": {
      "lat": 37.38541,
      "lng": 127.129386
    }
  },
  {
    "id": "14",
    "name": "너와집백합샤브샤브 백현점",
    "address": "경기도 성남시 분당구 판교백현로 45 1층 (백현동)",
    "coords": {
      "lat": 37.382061,
      "lng": 127.094168
    }
  },
  {
    "id": "15",
    "name": "니고라멘",
    "address": "경기도 성남시 분당구 황새울로214번길 8 1층 107호 (수내동; MS 프라자)",
    "coords": {
      "lat": 37.378133,
      "lng": 127.112312
    }
  },
  {
    "id": "16",
    "name": "다이호시",
    "address": "경기도 성남시 분당구 판교역로10번길 6 1(일부)층 (백현동)",
    "coords": {
      "lat": 37.384087,
      "lng": 127.111728
    }
  },
  {
    "id": "17",
    "name": "닥터로빈 시그니처 판교점",
    "address": "경기도 성남시 분당구 동판교로177번길 25 (삼평동; 판교호반써밋플레이스 1층 107호; 108호)",
    "coords": {
      "lat": 37.397321,
      "lng": 127.113562
    }
  },
  {
    "id": "18",
    "name": "도원참치 판교본점",
    "address": "경기도 성남시 분당구 판교역로192번길 14-2 (삼평동; 골드타워 214호)",
    "coords": {
      "lat": 37.397478,
      "lng": 127.112045
    }
  },
  {
    "id": "19",
    "name": "도쿄스테이크 서현역점",
    "address": "경기도 성남시 분당구 분당로53번길 19 (서현동;피아자코코빌딩 2층 202호)",
    "coords": {
      "lat": 37.384524,
      "lng": 127.122176
    }
  },
  {
    "id": "20",
    "name": "돈가스맘",
    "address": "경기도 성남시 분당구 발이봉로 10 (수내동; 1층 일부)",
    "coords": {
      "lat": 37.365554,
      "lng": 127.12692
    }
  },
  {
    "id": "21",
    "name": "돈블랑 판교점",
    "address": "경기도 성남시 분당구 대왕판교로606번길 10 1층 118호;119호 (백현동; 알파리움1단지)",
    "coords": {
      "lat": 37.395801,
      "lng": 127.107592
    }
  },
  {
    "id": "22",
    "name": "동청담 삼평직영점",
    "address": "경기도 성남시 분당구 대왕판교로606번길 45 2층 206호 (삼평동; 판교역 푸르지오시티)",
    "coords": {
      "lat": 37.396893,
      "lng": 127.111925
    }
  },
  {
    "id": "23",
    "name": "돼지맨숀",
    "address": "경기도 성남시 분당구 동판교로177번길 25 (삼평동; 판교 호반써밋플레이스 144호; 145호)",
    "coords": {
      "lat": 37.397321,
      "lng": 127.113562
    }
  },
  {
    "id": "24",
    "name": "두부공방 분당정자본점",
    "address": "경기도 성남시 분당구 백현로150번길 9-6 (정자동)",
    "coords": {
      "lat": 37.371948,
      "lng": 127.114296
    }
  },
  {
    "id": "25",
    "name": "람바다",
    "address": "경기도 성남시 분당구 판교역로 184 (삼평동; JS타워신축공사 2층 일부)",
    "coords": {
      "lat": 37.397148,
      "lng": 127.110044
    }
  },
  {
    "id": "26",
    "name": "레스토랑마고",
    "address": "경기도 성남시 분당구 정자일로 230 (정자동;동양파라곤 105동 지하 103호)",
    "coords": {
      "lat": 37.370325,
      "lng": 127.106503
    }
  },
  {
    "id": "27",
    "name": "리얼스페인 판교점",
    "address": "경기도 성남시 분당구 판교역로10번길 12-5 (백현동; 1층)",
    "coords": {
      "lat": 37.384783,
      "lng": 127.112074
    }
  },
  {
    "id": "28",
    "name": "마루심 판교점",
    "address": "경기도 성남시 분당구 동판교로177번길 25 2층 236호; 237호 (삼평동; 판교 호반 써밋 플레이스)",
    "coords": {
      "lat": 37.397321,
      "lng": 127.113562
    }
  },
  {
    "id": "29",
    "name": "마초야 수내직영점",
    "address": "경기도 성남시 분당구 백현로101번길 13 (수내동;월드프라자 107;108호(1층))",
    "coords": {
      "lat": 37.377229,
      "lng": 127.11216
    }
  },
  {
    "id": "30",
    "name": "마키노차야 판교점",
    "address": "경기도 성남시 분당구 판교역로 145 타워2동 지하1층 B109~B115호; B131~137호 (백현동; 알파리움)",
    "coords": {
      "lat": 37.394404,
      "lng": 127.108352
    }
  },
  {
    "id": "31",
    "name": "몽중헌 판교점",
    "address": "경기도 성남시 분당구 분당내곡로 131 2층 일부호 (백현동)",
    "coords": {
      "lat": 37.395465,
      "lng": 127.112114
    }
  },
  {
    "id": "32",
    "name": "미방 정자점",
    "address": "경기도 성남시 분당구 느티로 16 (정자동; 젤존타워1 210호 )",
    "coords": {
      "lat": 37.368163,
      "lng": 127.106312
    }
  },
  {
    "id": "33",
    "name": "미스터스시 정자점",
    "address": "경기도 성남시 분당구 정자일로213번길 10 101동 1층 102호 (정자동; 성원상떼뷰)",
    "coords": {
      "lat": 37.36975,
      "lng": 127.105596
    }
  },
  {
    "id": "34",
    "name": "미카도",
    "address": "경기도 성남시 분당구 성남대로343번길 10-6 (정자동; 2층전부)",
    "coords": {
      "lat": 37.367185,
      "lng": 127.107079
    }
  },
  {
    "id": "35",
    "name": "방유당 그레이츠판교점",
    "address": "경기도 성남시 분당구 분당내곡로 117 그레이츠 판교(GREITS PANGYO) 지하1층 일부(B108)호 (백현동)",
    "coords": {
      "lat": 37.394301,
      "lng": 127.112201
    }
  },
  {
    "id": "36",
    "name": "백마강참숯민물장어 판교점",
    "address": "경기도 성남시 분당구 안양판교로 1192 (백현동; 가동 1;2층)",
    "coords": {
      "lat": 37.381397,
      "lng": 127.097856
    }
  },
  {
    "id": "37",
    "name": "봉피양 판교점",
    "address": "경기도 성남시 분당구 판교역로 235 (삼평동; 에이치스퀘어 엔동 121호; 122호)",
    "coords": {
      "lat": 37.402048,
      "lng": 127.108691
    }
  },
  {
    "id": "38",
    "name": "부성초밥",
    "address": "경기도 성남시 분당구 서현로210번길 20 (서현동;코코플라자 105)",
    "coords": {
      "lat": 37.385857,
      "lng": 127.124037
    }
  },
  {
    "id": "39",
    "name": "붓처스컷 아브뉴프랑 판교점",
    "address": "경기도 성남시 분당구 동판교로177번길 25 2층 228호 (삼평동; 판교 호반 써밋 플레이스)",
    "coords": {
      "lat": 37.397321,
      "lng": 127.113562
    }
  },
  {
    "id": "40",
    "name": "블루핀튜나",
    "address": "경기도 성남시 분당구 황새울로200번길 28 (수내동;오너스타워 103호; 104호)",
    "coords": {
      "lat": 37.376796,
      "lng": 127.113385
    }
  },
  {
    "id": "41",
    "name": "빈티지1988",
    "address": "경기도 성남시 분당구 판교역로 231 (삼평동; 에이치스퀘어 에스동1층 101호)",
    "coords": {
      "lat": 37.401335,
      "lng": 127.108699
    }
  },
  {
    "id": "42",
    "name": "뿅의전설 본점",
    "address": "경기도 성남시 분당구 야탑로139번길 2 (야탑동; 지상1층 전부; 지하1층 일부)",
    "coords": {
      "lat": 37.40979,
      "lng": 127.13449
    }
  },
  {
    "id": "43",
    "name": "사위식당 판교점",
    "address": "경기도 성남시 분당구 판교역로 152 알파돔타워 2(일부)층 (백현동)",
    "coords": {
      "lat": 37.394245,
      "lng": 127.110307
    }
  },
  {
    "id": "44",
    "name": "사카나",
    "address": "경기도 성남시 분당구 백현로101번길 17 (수내동; 초림프라자 1층 104호)",
    "coords": {
      "lat": 37.37748,
      "lng": 127.11251
    }
  },
  {
    "id": "45",
    "name": "삼김화로구이",
    "address": "경기도 성남시 분당구 느티로 16 젤존타워1 2층 206호 (정자동)",
    "coords": {
      "lat": 37.368163,
      "lng": 127.106312
    }
  },
  {
    "id": "46",
    "name": "삼돌이",
    "address": "경기도 성남시 분당구 황새울로 325 (서현동; 서현하우비 2층 203호)",
    "coords": {
      "lat": 37.385567,
      "lng": 127.121426
    }
  },
  {
    "id": "47",
    "name": "삿뽀로 판교점",
    "address": "경기도 성남시 분당구 대왕판교로606번길 58 (삼평동; 판교푸르지오월드마크 2층 2-33~38호)",
    "coords": {
      "lat": 37.395421,
      "lng": 127.113555
    }
  },
  {
    "id": "48",
    "name": "상무초밥 분당서현점",
    "address": "경기도 성남시 분당구 황새울로 348 1(일부)층 (서현동)",
    "coords": {
      "lat": 37.386545,
      "lng": 127.123698
    }
  },
  {
    "id": "49",
    "name": "샤브올데이 분당서현점",
    "address": "경기도 성남시 분당구 서현로 170 에스-331호 (서현동)",
    "coords": {
      "lat": 37.388989,
      "lng": 127.122531
    }
  },
  {
    "id": "50",
    "name": "서울24시감자탕 서현3호점",
    "address": "경기도 성남시 분당구 황새울로 315 (서현동;외 4필지 (대현빌딩 지상1층 일부))",
    "coords": {
      "lat": 37.385034,
      "lng": 127.120439
    }
  },
  {
    "id": "51",
    "name": "서울멸치쌈밥",
    "address": "경기도 성남시 분당구 판교역로10번길 10-3 1층 (백현동)",
    "coords": {
      "lat": 37.384557,
      "lng": 127.112084
    }
  },
  {
    "id": "52",
    "name": "서현궁 백현점",
    "address": "경기도 성남시 분당구 판교백현로 63 1층 (백현동)",
    "coords": {
      "lat": 37.382698,
      "lng": 127.092204
    }
  },
  {
    "id": "53",
    "name": "서현실비",
    "address": "경기도 성남시 분당구 황새울로311번길 14 1층 (서현동; 서현리더스빌딩 108호; 109호)",
    "coords": {
      "lat": 37.385503,
      "lng": 127.119621
    }
  },
  {
    "id": "54",
    "name": "서호돈가스 판교점",
    "address": "경기도 성남시 분당구 판교역로 231 (삼평동;에이치스퀘어 에스동 1층 124호)",
    "coords": {
      "lat": 37.401335,
      "lng": 127.108699
    }
  },
  {
    "id": "55",
    "name": "선영국밥",
    "address": "경기도 성남시 분당구 정자일로213번길 19 (정자동;아이파크 202동 101호;102호)",
    "coords": {
      "lat": 37.370746,
      "lng": 127.104844
    }
  },
  {
    "id": "56",
    "name": "선한레시피 판교점",
    "address": "경기도 성남시 분당구 서판교로44번길 17-3 (판교동; 1층 전부)",
    "coords": {
      "lat": 37.39106,
      "lng": 127.099602
    }
  },
  {
    "id": "57",
    "name": "송도갈비 판교브릿지타워점",
    "address": "경기도 성남시 분당구 판교로227번길 6 1층 124~132호 (삼평동; 판교테크노밸리브릿타워)",
    "coords": {
      "lat": 37.403035,
      "lng": 127.099241
    }
  },
  {
    "id": "58",
    "name": "수타우동겐 본점",
    "address": "경기도 성남시 분당구 야탑로 72 야탑시장주차장 1층 1-03호의 일부호 (야탑동)",
    "coords": {
      "lat": 37.40958,
      "lng": 127.126822
    }
  },
  {
    "id": "59",
    "name": "숙성도 판교점",
    "address": "경기도 성남시 분당구 판교역로 136 1층 1042~1047호 (백현동)",
    "coords": {
      "lat": 37.392507,
      "lng": 127.11043
    }
  },
  {
    "id": "60",
    "name": "쉐누하누",
    "address": "경기도 성남시 분당구 판교역로 145 타워2동 2층 201호;202호;203호 (백현동; 알파리움)",
    "coords": {
      "lat": 37.394404,
      "lng": 127.108352
    }
  },
  {
    "id": "61",
    "name": "스시가좋아서",
    "address": "경기도 성남시 분당구 판교로 372 (삼평동; 스타식스코아1 202호)",
    "coords": {
      "lat": 37.403717,
      "lng": 127.115681
    }
  },
  {
    "id": "62",
    "name": "스시강",
    "address": "경기도 성남시 분당구 수내로 38 (수내동; 두산위브센티움 103호)",
    "coords": {
      "lat": 37.381139,
      "lng": 127.116643
    }
  },
  {
    "id": "63",
    "name": "스시료코",
    "address": "경기도 성남시 분당구 수내로 38 1층 101호 (수내동; 두산위브센티움1 )",
    "coords": {
      "lat": 37.381139,
      "lng": 127.116643
    }
  },
  {
    "id": "64",
    "name": "스시소라 정자점",
    "address": "경기도 성남시 분당구 성남대로331번길 13 3층 307호 (정자동)",
    "coords": {
      "lat": 37.365286,
      "lng": 127.106308
    }
  },
  {
    "id": "65",
    "name": "스시앤스시 본점",
    "address": "경기도 성남시 분당구 백현로101번길 11 (수내동; 지상1층일부 )",
    "coords": {
      "lat": 37.377085,
      "lng": 127.11198
    }
  },
  {
    "id": "66",
    "name": "스시언",
    "address": "경기도 성남시 분당구 정자일로213번길 18 성원상떼뷰리젠시 201동 1층 102호 (정자동; 성원상떼뷰리젠시)",
    "coords": {
      "lat": 37.370294,
      "lng": 127.105626
    }
  },
  {
    "id": "67",
    "name": "스시혼 판교본점",
    "address": "경기도 성남시 분당구 동판교로177번길 25 1층 137;138호 (삼평동; 판교 호반 써밋 플레이스)",
    "coords": {
      "lat": 37.397321,
      "lng": 127.113562
    }
  },
  {
    "id": "68",
    "name": "신도세기 판교역점",
    "address": "경기도 성남시 분당구 판교역로 152 알파돔타워 2(일부)층 (백현동)",
    "coords": {
      "lat": 37.394245407468,
      "lng": 127.110306812433
    }
  },
  {
    "id": "69",
    "name": "신승반점 현대백화점 판교점",
    "address": "경기도 성남시 분당구 판교역로146번길 20 (백현동; 현대백화점 판교복합몰 지하1층 일부)",
    "coords": {
      "lat": 37.392794,
      "lng": 127.112017
    }
  },
  {
    "id": "70",
    "name": "양우정 판교점",
    "address": "경기도 성남시 분당구 대왕판교로606번길 10 1층 112;113;114호 (백현동; 알파리움1단지)",
    "coords": {
      "lat": 37.395801,
      "lng": 127.107592
    }
  },
  {
    "id": "71",
    "name": "양재정육식당",
    "address": "경기도 성남시 분당구 분당내곡로 151 (삼평동; 삼도타워 1층 103호; 104호; 105호; 106호)",
    "coords": {
      "lat": 37.397366,
      "lng": 127.112519
    }
  },
  {
    "id": "72",
    "name": "여기풍천민물장어",
    "address": "경기도 성남시 분당구 대왕판교로 266 (궁내동;1층)",
    "coords": {
      "lat": 37.367376,
      "lng": 127.102056
    }
  },
  {
    "id": "73",
    "name": "오마카세 스시이찌 판교점",
    "address": "경기도 성남시 분당구 판교역로192번길 22 판교 효성 해링턴 타워 2층 201호 (삼평동)",
    "coords": {
      "lat": 37.39803,
      "lng": 127.11203
    }
  },
  {
    "id": "74",
    "name": "오복수산 판교점",
    "address": "경기도 성남시 분당구 분당내곡로 131 2층 일부호 (백현동)",
    "coords": {
      "lat": 37.3954648629951,
      "lng": 127.112113596734
    }
  },
  {
    "id": "75",
    "name": "우설화 판교점",
    "address": "경기도 성남시 분당구 판교로 185 (판교동; 3층)",
    "coords": {
      "lat": 37.4006353464395,
      "lng": 127.095072428483
    }
  },
  {
    "id": "76",
    "name": "울프스덴",
    "address": "경기도 성남시 분당구 대왕판교로 660 (삼평동; 유스페이스 2층 215호)",
    "coords": {
      "lat": 37.400466,
      "lng": 127.106813
    }
  },
  {
    "id": "77",
    "name": "워모잡",
    "address": "경기도 성남시 분당구 판교공원로2길 40-1 경기도 성남시 분당구 운중로277번길 9; 1층 (판교동)",
    "coords": {
      "lat": 37.389689,
      "lng": 127.093823
    }
  },
  {
    "id": "78",
    "name": "원복집",
    "address": "경기도 성남시 분당구 황새울로258번길 28 (수내동; 2층 전부)",
    "coords": {
      "lat": 37.379716,
      "lng": 127.11646
    }
  },
  {
    "id": "79",
    "name": "유타로 서현직영점",
    "address": "경기도 성남시 분당구 황새울로335번길 8 (서현동; 덕산빌딩 101호)",
    "coords": {
      "lat": 37.386604,
      "lng": 127.122127
    }
  },
  {
    "id": "80",
    "name": "육화몽 서현점",
    "address": "경기도 성남시 분당구 황새울로335번길 5 107호 (서현동; 외1필지 앤 타운빌딩 1층)",
    "coords": {
      "lat": 37.386049,
      "lng": 127.121698
    }
  },
  {
    "id": "81",
    "name": "윤밀원",
    "address": "경기도 성남시 분당구 백현로 154 경기도 성남시 분당구 불곡남로13번길 3 (정자동; 1층)",
    "coords": {
      "lat": 37.372663,
      "lng": 127.114986
    }
  },
  {
    "id": "82",
    "name": "이가네양갈비 판교직영점",
    "address": "경기도 성남시 분당구 판교역로 145 타워2동 1층 113호 (백현동; 알파리움2단지)",
    "coords": {
      "lat": 37.394404,
      "lng": 127.108352
    }
  },
  {
    "id": "83",
    "name": "이춘복참치 판교",
    "address": "경기도 성남시 분당구 동판교로177번길 25 2층 216호 (삼평동; 판교 호반 써밋 플레이스)",
    "coords": {
      "lat": 37.397321,
      "lng": 127.113562
    }
  },
  {
    "id": "84",
    "name": "이태리부대찌개 판교점",
    "address": "경기도 성남시 분당구 판교역로 230 (삼평동; 삼환하이펙스B동 지하1층 B117-1호)",
    "coords": {
      "lat": 37.401283,
      "lng": 127.110454
    }
  },
  {
    "id": "85",
    "name": "인디안커리",
    "address": "경기도 성남시 분당구 황새울로360번길 21 (서현동; 신영팰리스타워 2층 203호)",
    "coords": {
      "lat": 37.385703,
      "lng": 127.12571
    }
  },
  {
    "id": "86",
    "name": "자산어보 판교직영점",
    "address": "경기도 성남시 분당구 대왕판교로606번길 10 (백현동; 알파리움 타워1동 2층 201호; 202호)",
    "coords": {
      "lat": 37.395801,
      "lng": 127.107592
    }
  },
  {
    "id": "87",
    "name": "장수천한방민물장어 분당본점",
    "address": "경기도 성남시 분당구 대왕판교로 282 (궁내동; 1층일부; 2층일부)",
    "coords": {
      "lat": 37.36883,
      "lng": 127.10205
    }
  },
  {
    "id": "88",
    "name": "장원막국수",
    "address": "경기도 성남시 분당구 황새울로319번길 8-4 (서현동; 1층 일부)",
    "coords": {
      "lat": 37.385582,
      "lng": 127.120945
    }
  },
  {
    "id": "89",
    "name": "전국5대짬뽕연화산",
    "address": "경기도 성남시 분당구 서판교로58번길 14 (판교동; 1층 전부)",
    "coords": {
      "lat": 37.391788,
      "lng": 127.099608
    }
  },
  {
    "id": "90",
    "name": "정가네능이백숙",
    "address": "경기도 성남시 분당구 서현로247번길 9 (서현동; 1층 )",
    "coords": {
      "lat": 37.385289,
      "lng": 127.129523
    }
  },
  {
    "id": "91",
    "name": "정통춘천닭갈비",
    "address": "경기도 성남시 분당구 내정로119번길 15 (정자동;지상1층)",
    "coords": {
      "lat": 37.371733,
      "lng": 127.113991
    }
  },
  {
    "id": "92",
    "name": "조재벌식당",
    "address": "경기도 성남시 분당구 판교로319번길 13 (삼평동; 디테라스 지1층 105호;106호)",
    "coords": {
      "lat": 37.403738,
      "lng": 127.109118
    }
  },
  {
    "id": "93",
    "name": "주누돈까스냉면",
    "address": "경기도 성남시 분당구 서현로210번길 14 (서현동;1층 104호;105호)",
    "coords": {
      "lat": 37.386236,
      "lng": 127.124594
    }
  },
  {
    "id": "94",
    "name": "창고43 판교점",
    "address": "경기도 성남시 분당구 분당내곡로 131 2층 일부(5호; 6호)호 (백현동)",
    "coords": {
      "lat": 37.395465,
      "lng": 127.112114
    }
  },
  {
    "id": "95",
    "name": "천지연 판교점",
    "address": "경기도 성남시 분당구 판교로 185 (판교동; 1층)",
    "coords": {
      "lat": 37.400635,
      "lng": 127.095072
    }
  },
  {
    "id": "96",
    "name": "청담일식 서현점",
    "address": "경기도 성남시 분당구 안골로 24 (서현동;지하1층)",
    "coords": {
      "lat": 37.384662,
      "lng": 127.134894
    }
  },
  {
    "id": "97",
    "name": "청담추어정 분당점",
    "address": "경기도 성남시 분당구 판교로552번길 2 경기도 성남시 분당구 분당내곡로 117; 크래프톤타워 지하1(일부)층 (백현동)",
    "coords": {
      "lat": 37.4072104342353,
      "lng": 127.134451358779
    }
  },
  {
    "id": "98",
    "name": "청정갯마을 분당점",
    "address": "경기도 성남시 분당구 성남대로858번길 4 (야탑동; 1층 )",
    "coords": {
      "lat": 37.406039,
      "lng": 127.129261
    }
  },
  {
    "id": "99",
    "name": "최가돈까스",
    "address": "경기도 성남시 분당구 정자일로 210 (정자동; 1단지상가 지하 104호)",
    "coords": {
      "lat": 37.36875,
      "lng": 127.106491
    }
  },
  {
    "id": "100",
    "name": "카츠쇼쿠도우 판교본점",
    "address": "경기도 성남시 분당구 판교역로 152 지하1(일부)층 (백현동)",
    "coords": {
      "lat": 37.394245,
      "lng": 127.110307
    }
  },
  {
    "id": "101",
    "name": "코다리밥상 이매점",
    "address": "경기도 성남시 분당구 이매로 119 (이매동; 이매동근린생활시설 B동 지하1층 전부)",
    "coords": {
      "lat": 37.391784,
      "lng": 127.133187
    }
  },
  {
    "id": "102",
    "name": "코이라멘 지로2호점",
    "address": "경기도 성남시 분당구 정자일로198번길 15 (정자동; 제나프라자 111호)",
    "coords": {
      "lat": 37.367678,
      "lng": 127.107686
    }
  },
  {
    "id": "103",
    "name": "크래버대게나라 판교점",
    "address": "경기도 성남시 분당구 판교역로 178 (삼평동; 13층 1302호)",
    "coords": {
      "lat": 37.396508,
      "lng": 127.110054
    }
  },
  {
    "id": "104",
    "name": "탈리",
    "address": "경기도 성남시 분당구 서현로 192 (서현동;208호)",
    "coords": {
      "lat": 37.387793,
      "lng": 127.124427
    }
  },
  {
    "id": "105",
    "name": "판교매일식당 판교본점",
    "address": "경기도 성남시 분당구 판교역로192번길 14-2 (삼평동; 골드타워 1층일부)",
    "coords": {
      "lat": 37.397478,
      "lng": 127.112045
    }
  },
  {
    "id": "106",
    "name": "팔복판교",
    "address": "경기도 성남시 분당구 판교역로241번길 22 (삼평동; 엠타워 1층 104호; 105호; 106호)",
    "coords": {
      "lat": 37.402705,
      "lng": 127.106814
    }
  },
  {
    "id": "107",
    "name": "평가옥 판교점",
    "address": "경기도 성남시 분당구 대왕판교로 660 1층 102호 (삼평동; 유스페이스1)",
    "coords": {
      "lat": 37.400466,
      "lng": 127.106813
    }
  },
  {
    "id": "108",
    "name": "평양면옥 분당점",
    "address": "경기도 성남시 분당구 안골로 27 (서현동; 1층)",
    "coords": {
      "lat": 37.385218,
      "lng": 127.134733
    }
  },
  {
    "id": "109",
    "name": "푸에르코 판교점",
    "address": "경기도 성남시 분당구 분당내곡로 117 크래프톤타워 2층 일부호 (백현동)",
    "coords": {
      "lat": 37.394301,
      "lng": 127.112201
    }
  },
  {
    "id": "110",
    "name": "하누비노 서현점",
    "address": "경기도 성남시 분당구 황새울로 314 (서현동; 유니퀘스트사옥 1층 일부)",
    "coords": {
      "lat": 37.384478,
      "lng": 127.120841
    }
  },
  {
    "id": "111",
    "name": "하루",
    "address": "경기도 성남시 분당구 판교역로 231 에이치스퀘어 에스동 1층 131호 (삼평동)",
    "coords": {
      "lat": 37.401335,
      "lng": 127.108699
    }
  },
  {
    "id": "112",
    "name": "하루초밥 이매점",
    "address": "경기도 성남시 분당구 판교로 442 우일프라자빌딩 1층 102호 (이매동)",
    "coords": {
      "lat": 37.40515,
      "lng": 127.122884
    }
  },
  {
    "id": "113",
    "name": "하이보 판교점",
    "address": "경기도 성남시 분당구 판교역로192번길 14-1 판교예미지 2층 전체호 (삼평동)",
    "coords": {
      "lat": 37.397479,
      "lng": 127.111799
    }
  },
  {
    "id": "114",
    "name": "한소헌",
    "address": "경기도 성남시 분당구 성남대로331번길 3-3 젤존타워III 2층 206호 (정자동)",
    "coords": {
      "lat": 37.365332,
      "lng": 127.107705
    }
  },
  {
    "id": "115",
    "name": "한점의희열 수내돈",
    "address": "경기도 성남시 분당구 백현로101번길 12 (수내동;(세인프라자 지상2층 204호))",
    "coords": {
      "lat": 37.376749,
      "lng": 127.112355
    }
  },
  {
    "id": "116",
    "name": "해우리 판교점",
    "address": "경기도 성남시 분당구 판교역로 145 지하1층 122;138;139;140;141;142호 (백현동; 알파리움2단지)",
    "coords": {
      "lat": 37.394404,
      "lng": 127.108352
    }
  },
  {
    "id": "117",
    "name": "행복치킨 정자점",
    "address": "경기도 성남시 분당구 정자일로232번길 25 (정자동;두산위브제니스 지하101호)",
    "coords": {
      "lat": 37.369546,
      "lng": 127.107604
    }
  },
  {
    "id": "118",
    "name": "현복집 판교점",
    "address": "경기도 성남시 분당구 대왕판교로606번길 10 (백현동; 알파리움 타워1동 2층 215호; 216호)",
    "coords": {
      "lat": 37.395801,
      "lng": 127.107592
    }
  },
  {
    "id": "119",
    "name": "호시",
    "address": "경기도 성남시 분당구 분당로53번길 14 (서현동;서현프라자 112호(1층))",
    "coords": {
      "lat": 37.383829,
      "lng": 127.122188
    }
  },
  {
    "id": "120",
    "name": "화포식당 판교점",
    "address": "경기도 성남시 분당구 대왕판교로 660 유스페이스1 2층 240호 (삼평동)",
    "coords": {
      "lat": 37.400466,
      "lng": 127.106813
    }
  },
  {
    "id": "121",
    "name": "황제갈비 판교점",
    "address": "경기도 성남시 분당구 대왕판교로 670 (삼평동; 유스페이스2; 1층 104호;105호)",
    "coords": {
      "lat": 37.402077,
      "lng": 127.10611
    }
  },
  {
    "id": "122",
    "name": "히카루후",
    "address": "경기도 성남시 분당구 동판교로177번길 25 217호 (삼평동; 판교 호반 써밋 플레이스)",
    "coords": {
      "lat": 37.397321,
      "lng": 127.113562
    }
  }
]